Unnamed: 0,day,has_5,km8_id,cuadricula_id,area_id,profile,point_id,lng,lat,formatted_address,location_type,applicant_id,user,legal_guardian_id,email,click_dashboard_menu,click_reg_user-log-in_log-in-button,click_school_pin,close_school_profile,favorite_school_from_list,favorite_school_from_listFavorites,login,map_filter_click,map_grade_click,menu_explore,menu_favorites,open_school_profile,open_school_profile3,outside_close_school_profile,remove_favorite_school_from_list,remove_favorite_school_from_listFavorites,sp_school_leadership,sp_school_performance,sp_school_photo,sp_school_price,sp_school_programs,sp_school_students
690,3,0,143,18,70,1,1386,-74.112218,4.4784773,"Cra. 3 #8b34, Usme, Bogotá, Colombia",ROOFTOP,234810,e9700a84-ec45-4398-ace2-de0359c87166,210612,users_produccion_jardines691@yopmail.com,5,5,740,910,30,11220,100,0,0,215,375,55,10,5,195,33585,5,5,5,5,5,0
2226,11,1,249,124,495,5,9899,-74.0990935,4.6524244,"Cl. 43 #66-39, Teusaquillo, Bogotá, Cundinamarca, Colombia",ROOFTOP,236346,19a9154a-7acf-48f7-92f5-808171e3e01b,212148,users_produccion_jardines2227@yopmail.com,0,0,0,0,0,50,5,0,0,0,5,0,0,0,0,195,0,0,0,0,0,0
2479,13,1,143,18,69,4,1377,-74.11976,4.474475,"Av Caracas # 134-10, Usme, Bogotá, D.C., Bogotá, Bogotá, D.C., Colombia",ROOFTOP,236599,c39d983a-e9bb-4ead-8097-cf9b3077ecb4,212401,users_produccion_jardines2480@yopmail.com,0,0,0,0,0,100,15,0,0,0,10,0,0,0,0,450,0,0,0,0,0,0
2480,13,1,144,19,75,1,1483,-74.106078,4.485344,"Carrera 6Ce # 116-84, Usme, Bogotá, D.C., Bogotá, Bogotá, D.C., Colombia",ROOFTOP,236600,217bd927-48f9-49f0-a3b9-00b29f0dd049,212402,users_produccion_jardines2481@yopmail.com,0,0,1962,488,40,14240,65,5,5,362,462,77,5,0,363,86139,0,5,25,5,5,10
2633,14,1,144,19,73,4,1446,-74.103566,4.483602,"Transversal 7Ae # 117C-51, Usme, Bogotá, D.C., Bogotá, Bogotá, D.C., Colombia",ROOFTOP,236753,5c678dac-e04b-446b-848a-ebd82c855076,212555,users_produccion_jardines2634@yopmail.com,0,0,0,5,0,445,20,0,0,30,40,0,0,0,0,4170,0,0,0,0,0,0
3263,18,1,263,138,551,3,11013,-74.0487672,4.6679164,"Cl. 86 # 9-26, Chapinero, Bogotá, D.C., Bogotá, Bogotá, D.C., Colombia",ROOFTOP,237383,a5598835-139e-4fee-b07b-ba2ee99c9230,213185,users_produccion_jardines3264@yopmail.com,10,0,73,40,0,1510,5,0,0,54,68,0,0,0,52,2276,0,0,0,0,0,0
3356,19,1,224,99,394,2,7869,-74.126802,4.606334,"Cl. 27 Sur # 52A-18, Puente Aranda, Bogotá, D.C., Bogotá, Bogotá, D.C., Colombia",ROOFTOP,237476,060ddb14-6c67-4fd6-9147-bc3122ee89a3,213278,users_produccion_jardines3357@yopmail.com,80,5,340,190,0,11330,35,0,0,275,365,0,0,0,225,52160,0,0,0,5,0,0
